{"type":"FeatureCollection","features":[{"type":"Feature","properties":{"name":"Улан-Батор"},"geometry":{"coordinates":[106.90024560511569,47.914886065861566],"type":"Point"},"id":0},{"type":"Feature","properties":{"name":"Дзунхара"},"geometry":{"coordinates":[106.46033729356276,48.85183032572439],"type":"Point"},"id":1},{"type":"Feature","properties":{"name":"Дархан"},"geometry":{"coordinates":[105.93515906653164,49.49132425300155],"type":"Point"},"id":2},{"type":"Feature","properties":{"name":"Заимка Лушникова"},"geometry":{"coordinates":[107.19497,49.374773],"type":"Point"},"id":3},{"type":"Feature","properties":{"name":"Заимка Петрова"},"geometry":{"coordinates":[107.22793,49.378349],"type":"Point"},"id":4},{"type":"Feature","properties":{"name":"Корнаковка"},"geometry":{"coordinates":[106.96014,49.632506],"type":"Point"},"id":5},{"type":"Feature","properties":{"name":"Шарагол"},"geometry":{"coordinates":[107.43255,49.6874],"type":"Point"},"id":6},{"type":"Feature","properties":{"name":"Бильчир/Бэлчир"},"geometry":{"coordinates":[107.42706,49.71005],"type":"Point"},"id":7},{"type":"Feature","properties":{"name":"Булуктай"},"geometry":{"coordinates":[107.41882,49.75177],"type":"Point"},"id":8},{"type":"Feature","properties":{"name":"Шамар/Шаморы"},"geometry":{"coordinates":[106.21582,50.122779],"type":"Point"},"id":9},{"type":"Feature","properties":{"name":"Ибицик"},"geometry":{"coordinates":[106.61682,50.071904],"type":"Point"},"id":10},{"type":"Feature","properties":{"name":"Сухэ-Батор"},"geometry":{"coordinates":[106.20652985135928,50.236935205501425],"type":"Point"},"id":11},{"type":"Feature","properties":{"name":"Бухулэйн-Орос/Южный Бакулай"},"geometry":{"coordinates":[106.87019,49.479947],"type":"Point"},"id":12},{"type":"Feature","properties":{"name":"Жар-Галантои/Чжиргаланту"},"geometry":{"coordinates":[107.46826,49.877822],"type":"Point"},"id":13},{"type":"Feature","properties":{"name":"Ханза/Хаза"},"geometry":{"coordinates":[107.19772,49.915419],"type":"Point"},"id":14}]}